[{"name": "Alton", "postcode": "GU34 2QS", "lat": 51.157421, "long": -0.956537}, {"name": "Ashford", "postcode": "TN23 7DH", "lat": 51.135177, "long": 0.870721}, {"name": "Aylesbury", "postcode": "HP20 1DH", "lat": 51.818086, "long": -0.805149}, {"name": "Bagshot", "postcode": "GU19 5DG", "lat": 0, "long": 0}, {"name": "Basildon", "postcode": "SS13 3BY", "lat": 51.564192, "long": 0.505725}, {"name": "Basildon_Pipps_Hill", "postcode": "SS14 3AF", "lat": 51.581143, "long": 0.443534}, {"name": "Basingstoke", "postcode": "RG22 4TT", "lat": 51.233957, "long": -1.141485}, {"name": "Battersea", "postcode": "SW11 3RX", "lat": 51.469643, "long": -0.176429}, {"name": "Beckton", "postcode": "E6 6LG", "lat": 51.521133, "long": 0.070651}, {"name": "Bexhill", "postcode": "TN40 2JS", "lat": 50.844874, "long": 0.501216}, {"name": "Blackheath", "postcode": "SE10 8DA", "lat": 51.473071, "long": -0.018139}, {"name": "Bletchley", "postcode": "MK1 1BN", "lat": 52.002562, "long": -0.724652}, {"name": "Bognor_Regis", "postcode": "PO22 9NF", "lat": 50.798685, "long": -0.667151}, {"name": "Bracknell", "postcode": "RG12 1EN", "lat": 51.414577, "long": -0.755313}, {"name": "Brentford", "postcode": "TW8 8JW", "lat": 51.482172, "long": -0.314343}, {"name": "Broadstairs", "postcode": "CT10 2RQ", "lat": 51.361584, "long": 1.398326}, {"name": "Buckingham", "postcode": "MK18 1TB", "lat": 51.989192, "long": -0.991638}, {"name": "Burgess_Hill", "postcode": "RH15 9QT", "lat": 50.950564, "long": -0.149078}, {"name": "Byfleet", "postcode": "KT14 7NP", "lat": 51.340225, "long": -0.477112}, {"name": "Camden", "postcode": "NW1 9EX", "lat": 51.543913, "long": -0.13693}, {"name": "Canterbury", "postcode": "CT1 3TQ", "lat": 51.271737, "long": 1.063353}, {"name": "Canterbury_Sturry_Road", "postcode": "CT1 1DX", "lat": 51.291295, "long": 1.099587}, {"name": "Charlton", "postcode": "SE7 7TZ", "lat": 51.488666, "long": 0.020724}, {"name": "Chatham", "postcode": "ME5 9SQ", "lat": 51.350979, "long": 0.507228}, {"name": "Chelmsford", "postcode": "CM2 6XE", "lat": 51.732632, "long": 0.495698}, {"name": "Chichester", "postcode": "PO19 7YH", "lat": 50.841461, "long": -0.757297}, {"name": "Chingford", "postcode": "E4 8JA", "lat": 51.613179, "long": -0.032249}, {"name": "Crawley", "postcode": "RH11 7ST", "lat": 51.134507, "long": -0.190845}, {"name": "Crayford", "postcode": "DA1 4LD", "lat": 51.451253, "long": 0.181438}, {"name": "Croydon", "postcode": "CR0 4NX", "lat": 51.368721, "long": -0.118057}, {"name": "Dagenham", "postcode": "RM9 6SJ", "lat": 51.530577, "long": 0.145621}, {"name": "Dorking", "postcode": "RH4 1RU", "lat": 51.233241, "long": -0.3294}, {"name": "Dover", "postcode": "CT16 3PS", "lat": 51.153865, "long": 1.29854}, {"name": "Dunstable", "postcode": "LU5 4XZ", "lat": 51.890604, "long": -0.514047}, {"name": "East_Grinstead", "postcode": "RH19 1QL", "lat": 51.137408, "long": -0.035134}, {"name": "Eastbourne", "postcode": "BN23 6QD", "lat": 50.787017, "long": 0.303047}, {"name": "Eltham", "postcode": "SE9 5LT", "lat": 51.451065, "long": 0.033341}, {"name": "Enfield", "postcode": "EN1 1TH", "lat": 51.653761, "long": -0.054651}, {"name": "Farnborough", "postcode": "GU14 7QL", "lat": 51.28861, "long": -0.760871}, {"name": "Farnham", "postcode": "GU9 9QJ", "lat": 51.218514, "long": -0.783878}, {"name": "Feltham", "postcode": "TW13 4EX", "lat": 51.442892, "long": -0.412804}, {"name": "Folkestone", "postcode": "CT19 5SY", "lat": 51.095187, "long": 1.167498}, {"name": "Friern_Barnet", "postcode": "N11 3PW", "lat": 51.611571, "long": -0.143116}, {"name": "Gillingham", "postcode": "ME8 0PU", "lat": 51.367403, "long": 0.576371}, {"name": "Godalming", "postcode": "GU7 1DR", "lat": 51.187514, "long": -0.606494}, {"name": "Gravesend", "postcode": "DA11 0DQ", "lat": 51.444158, "long": 0.360571}, {"name": "Greenford", "postcode": "UB6 0UW", "lat": 51.541836, "long": -0.34005}, {"name": "Harlow", "postcode": "CM20 2SX", "lat": 51.785155, "long": 0.121971}, {"name": "Hastings", "postcode": "TN37 7PB", "lat": 50.887957, "long": 0.553261}, {"name": "Hatfield", "postcode": "AL9 5JP", "lat": 51.776142, "long": -0.222034}, {"name": "Havant", "postcode": "PO9 1ND", "lat": 50.850524, "long": -0.986896}, {"name": "Hayes", "postcode": "UB4 0TU", "lat": 51.51461, "long": -0.397889}, {"name": "Hemel_Hempstead", "postcode": "HP3 9AA", "lat": 51.739299, "long": -0.474067}, {"name": "Hendon", "postcode": "NW9 7TH", "lat": 51.580711, "long": -0.245101}, {"name": "Hertford", "postcode": "SG13 7RQ", "lat": 51.797063, "long": -0.069212}, {"name": "High_Wycombe", "postcode": "HP11 1FY", "lat": 51.618643, "long": -0.719697}, {"name": "Horsham", "postcode": "RH12 1HR", "lat": 51.061363, "long": -0.325105}, {"name": "Hove", "postcode": "BN3 7PN", "lat": 50.837916, "long": -0.17436}, {"name": "Ilford", "postcode": "IG2 6BE", "lat": 51.574762, "long": 0.084461}, {"name": "Luton", "postcode": "LU1 3JH", "lat": 51.873519, "long": -0.3982}, {"name": "Maidenhead", "postcode": "SL6 1AY", "lat": 51.518569, "long": -0.717543}, {"name": "Maidstone", "postcode": "ME20 7TP", "lat": 51.293972, "long": 0.469822}, {"name": "New_Malden", "postcode": "SW20 0JQ", "lat": 51.405065, "long": -0.238117}, {"name": "Newhaven", "postcode": "BN9 0AG", "lat": 50.798205, "long": 0.059491}, {"name": "Old_Kent_Road", "postcode": "SE1 5BA", "lat": 51.484387, "long": -0.068434}, {"name": "Orpington", "postcode": "BR5 3RP", "lat": 51.392696, "long": 0.112945}, {"name": "Portsmouth", "postcode": "PO3 5LZ", "lat": 50.81571, "long": -1.054266}, {"name": "Rayleigh", "postcode": "SS67UP", "lat": 51.575831, "long": 0.602318}, {"name": "Reading", "postcode": "RG2 0HB", "lat": 51.434117, "long": -0.970504}, {"name": "Redhill", "postcode": "RH1 6QL", "lat": 51.235174, "long": -0.169423}, {"name": "Richmond", "postcode": "TW9 1YB", "lat": 51.463437, "long": -0.288602}, {"name": "Romford", "postcode": "RM7 0AN", "lat": 51.569209, "long": 0.18457}, {"name": "Ruislip", "postcode": "HA4 0LN", "lat": 51.555701, "long": -0.390474}, {"name": "Rustington", "postcode": "BN16 3RT", "lat": 50.817576, "long": -0.498092}, {"name": "Sevenoaks", "postcode": "TN14 5EW", "lat": 51.298772, "long": 0.193667}, {"name": "Sittingbourne", "postcode": "ME10 2XD", "lat": 51.345021, "long": 0.735686}, {"name": "Slough", "postcode": "SL1 4XB", "lat": 51.522666, "long": -0.616201}, {"name": "Southend-on-Sea", "postcode": "SS2 6FW", "lat": 51.567778, "long": 0.703482}, {"name": "Southend_Victoria", "postcode": "SS1 1PA", "lat": 51.541837, "long": 0.705174}, {"name": "St_Albans", "postcode": "AL1 2RJ", "lat": 51.741753, "long": -0.341337}, {"name": "Sydenham", "postcode": "SE26 4PU", "lat": 51.429857, "long": -0.033935}, {"name": "Thamesmead", "postcode": "SE28 8RD", "lat": 51.506662, "long": 0.104076}, {"name": "Thurrock", "postcode": "RM20 3LP", "lat": 51.485804, "long": 0.271413}, {"name": "Tilehurst", "postcode": "RG30 1PR", "lat": 51.461326, "long": -1.014177}, {"name": "Tunbridge_Wells", "postcode": "TN2 3FB", "lat": 51.155923, "long": 0.28795}, {"name": "Waltham_Abbey", "postcode": "EN9 1BY", "lat": 51.68602, "long": -0.009966}, {"name": "Walton_On_Thames", "postcode": "KT12 2SS", "lat": 51.387939, "long": -0.41812}, {"name": "Watford", "postcode": "WD17 2SF", "lat": 51.649103, "long": -0.389487}, {"name": "West_Drayton", "postcode": "UB8 2TE", "lat": 51.517916, "long": -0.478082}, {"name": "Wimbledon", "postcode": "SW17 0BW", "lat": 51.429853, "long": -0.185911}, {"name": "Winnersh", "postcode": "RG41 5HH", "lat": 51.435581, "long": -0.894323}, {"name": "Woking", "postcode": "GU22 8BD", "lat": 51.32359, "long": -0.542921}, {"name": "Wokingham", "postcode": "RG40 2NU", "lat": 51.405767, "long": -0.837922}, {"name": "Worthing", "postcode": "BN14 9GB", "lat": 50.834955, "long": -0.36701}]